[{"_id":{"$oid":"692671f89e21211ca1f7556c"},"name":"IronWorks Gym","type":"Gym","address":{"street":"12 Powell St","city":"Vancouver","country":"Canada"},"location":{"type":"Point","coordinates":[-123.099,49.2825]}},{"_id":{"$oid":"692671f89e21211ca1f7556d"},"name":"Kitsilano Fitness Club","type":"Gym","address":{"street":"1805 Cornwall Ave","city":"Vancouver","country":"Canada"},"location":{"type":"Point","coordinates":[-123.157,49.274]}},{"_id":{"$oid":"692671f89e21211ca1f7556e"},"name":"Burnaby Fitness World","type":"Gym","address":{"street":"6200 McKay Ave","city":"Burnaby","country":"Canada"},"location":{"type":"Point","coordinates":[-123.003,49.227]}},{"_id":{"$oid":"692671f89e21211ca1f7556f"},"name":"Surrey Sport & Fitness Center","type":"Gym","address":{"street":"14988 20 Ave","city":"Surrey","country":"Canada"},"location":{"type":"Point","coordinates":[-122.799,49.038]}},{"_id":{"$oid":"692671f89e21211ca1f75570"},"name":"Richmond Iron Temple","type":"Gym","address":{"street":"11000 Cambie Rd","city":"Richmond","country":"Canada"},"location":{"type":"Point","coordinates":[-123.117,49.178]}},{"_id":{"$oid":"692671f89e21211ca1f75571"},"name":"North Van Powerhouse","type":"Gym","address":{"street":"123 Bewicke Ave","city":"North Vancouver","country":"Canada"},"location":{"type":"Point","coordinates":[-123.084,49.316]}},{"_id":{"$oid":"692671f89e21211ca1f75572"},"name":"Coquitlam Peak Fitness","type":"Gym","address":{"street":"1116 Falcon Dr","city":"Coquitlam","country":"Canada"},"location":{"type":"Point","coordinates":[-122.816,49.295]}},{"_id":{"$oid":"692671f89e21211ca1f75573"},"name":"Langley Barbell Club","type":"Gym","address":{"street":"20165 91A Ave","city":"Langley","country":"Canada"},"location":{"type":"Point","coordinates":[-122.656,49.163]}},{"_id":{"$oid":"692671f89e21211ca1f75574"},"name":"Maple Ridge Fitness Hub","type":"Gym","address":{"street":"22470 Dewdney Trunk Rd","city":"Maple Ridge","country":"Canada"},"location":{"type":"Point","coordinates":[-122.608,49.218]}},{"_id":{"$oid":"692671f89e21211ca1f75575"},"name":"Delta Athletic Centre","type":"Gym","address":{"street":"7515 120 St","city":"Delta","country":"Canada"},"location":{"type":"Point","coordinates":[-122.889,49.145]}},{"_id":{"$oid":"692671f89e21211ca1f75576"},"name":"Stanley Park Seawall","type":"Park","address":{"street":"845 Avison Way","city":"Vancouver","country":"Canada"},"location":{"type":"Point","coordinates":[-123.1417,49.301]}},{"_id":{"$oid":"692671f89e21211ca1f75577"},"name":"Queen Elizabeth Park","type":"Park","address":{"street":"4600 Cambie St","city":"Vancouver","country":"Canada"},"location":{"type":"Point","coordinates":[-123.112,49.241]}},{"_id":{"$oid":"692671f89e21211ca1f75578"},"name":"Trout Lake Park","type":"Park","address":{"street":"3300 Victoria Dr","city":"Vancouver","country":"Canada"},"location":{"type":"Point","coordinates":[-123.056,49.249]}},{"_id":{"$oid":"692671f89e21211ca1f75579"},"name":"Jericho Beach Park","type":"Park","address":{"street":"3941 Point Grey Rd","city":"Vancouver","country":"Canada"},"location":{"type":"Point","coordinates":[-123.205,49.276]}},{"_id":{"$oid":"692671f89e21211ca1f7557a"},"name":"Burnaby Central Park","type":"Park","address":{"street":"3883 Imperial St","city":"Burnaby","country":"Canada"},"location":{"type":"Point","coordinates":[-123.014,49.228]}},{"_id":{"$oid":"692671f89e21211ca1f7557b"},"name":"Richmond Olympic Oval Track","type":"Facility","address":{"street":"6111 River Rd","city":"Richmond","country":"Canada"},"location":{"type":"Point","coordinates":[-123.138,49.174]}},{"_id":{"$oid":"692671f89e21211ca1f7557c"},"name":"Lynn Canyon Park","type":"Park","address":{"street":"3663 Park Rd","city":"North Vancouver","country":"Canada"},"location":{"type":"Point","coordinates":[-123.019,49.343]}},{"_id":{"$oid":"692671f89e21211ca1f7557d"},"name":"Coquitlam River Trail","type":"Park","address":{"street":"1299 River Dr","city":"Coquitlam","country":"Canada"},"location":{"type":"Point","coordinates":[-122.778,49.307]}},{"_id":{"$oid":"692671f89e21211ca1f7557e"},"name":"Port Moody Rocky Point Park","type":"Park","address":{"street":"2800 Murray St","city":"Port Moody","country":"Canada"},"location":{"type":"Point","coordinates":[-122.852,49.281]}},{"_id":{"$oid":"692671f89e21211ca1f7557f"},"name":"Surrey Green Timbers Park","type":"Park","address":{"street":"14600 100 Ave","city":"Surrey","country":"Canada"},"location":{"type":"Point","coordinates":[-122.813,49.178]}},{"_id":{"$oid":"692671f89e21211ca1f75580"},"name":"Rogers Arena","type":"Facility","address":{"street":"800 Griffiths Way","city":"Vancouver","country":"Canada"},"location":{"type":"Point","coordinates":[-123.109,49.277]}},{"_id":{"$oid":"692671f89e21211ca1f75581"},"name":"UBC Thunderbird Stadium","type":"Facility","address":{"street":"6288 Stadium Rd","city":"Vancouver","country":"Canada"},"location":{"type":"Point","coordinates":[-123.25,49.26]}},{"_id":{"$oid":"692671f89e21211ca1f75582"},"name":"Burnaby Lake Sports Complex","type":"Facility","address":{"street":"3677 Kensington Ave","city":"Burnaby","country":"Canada"},"location":{"type":"Point","coordinates":[-122.962,49.25]}},{"_id":{"$oid":"692671f89e21211ca1f75583"},"name":"Langley Events Centre","type":"Facility","address":{"street":"7888 200 St","city":"Langley","country":"Canada"},"location":{"type":"Point","coordinates":[-122.661,49.152]}},{"_id":{"$oid":"692671f89e21211ca1f75584"},"name":"North Surrey Sport Complex","type":"Facility","address":{"street":"12780 110 Ave","city":"Surrey","country":"Canada"},"location":{"type":"Point","coordinates":[-122.86,49.206]}},{"_id":{"$oid":"692671f89e21211ca1f75585"},"name":"Richmond Ice Centre","type":"Facility","address":{"street":"14140 Triangle Rd","city":"Richmond","country":"Canada"},"location":{"type":"Point","coordinates":[-123.1135,49.1802]}},{"_id":{"$oid":"692671f89e21211ca1f75586"},"name":"Delta Planet Ice","type":"Facility","address":{"street":"10388 Nordel Crt","city":"Delta","country":"Canada"},"location":{"type":"Point","coordinates":[-122.912,49.164]}},{"_id":{"$oid":"692671f89e21211ca1f75587"},"name":"Port Coquitlam Rec Centre","type":"Facility","address":{"street":"2150 Wilson Ave","city":"Port Coquitlam","country":"Canada"},"location":{"type":"Point","coordinates":[-122.763,49.262]}},{"_id":{"$oid":"692671f89e21211ca1f75588"},"name":"Maple Ridge Planet Ice","type":"Facility","address":{"street":"23588 Jim Robson Way","city":"Maple Ridge","country":"Canada"},"location":{"type":"Point","coordinates":[-122.603,49.212]}},{"_id":{"$oid":"692671f89e21211ca1f75589"},"name":"West Vancouver Ice Arena","type":"Facility","address":{"street":"786 22nd St","city":"West Vancouver","country":"Canada"},"location":{"type":"Point","coordinates":[-123.151,49.328]}},{"_id":{"$oid":"692671f89e21211ca1f7558a"},"name":"Hillcrest Aquatic Centre","type":"Facility","address":{"street":"4575 Clancy Loranger Way","city":"Vancouver","country":"Canada"},"location":{"type":"Point","coordinates":[-123.106,49.241]}},{"_id":{"$oid":"692671f89e21211ca1f7558b"},"name":"Kitsilano Pool","type":"Facility","address":{"street":"2305 Cornwall Ave","city":"Vancouver","country":"Canada"},"location":{"type":"Point","coordinates":[-123.158,49.273]}},{"_id":{"$oid":"692671f89e21211ca1f7558c"},"name":"Guildford Aquatic Centre","type":"Facility","address":{"street":"15105 105 Ave","city":"Surrey","country":"Canada"},"location":{"type":"Point","coordinates":[-122.807,49.196]}},{"_id":{"$oid":"692671f89e21211ca1f7558d"},"name":"Richmond Watermania","type":"Facility","address":{"street":"14300 Entertainment Blvd","city":"Richmond","country":"Canada"},"location":{"type":"Point","coordinates":[-123.0675,49.1795]}},{"_id":{"$oid":"692671f89e21211ca1f7558e"},"name":"Edmonds Community Centre Pool","type":"Facility","address":{"street":"7433 Edmonds St","city":"Burnaby","country":"Canada"},"location":{"type":"Point","coordinates":[-122.963,49.219]}},{"_id":{"$oid":"692671f89e21211ca1f7558f"},"name":"Belcarra Regional Park","type":"Park","address":{"street":"2375 Bedwell Bay Rd","city":"Belcarra","country":"Canada"},"location":{"type":"Point","coordinates":[-122.881,49.31]}},{"_id":{"$oid":"692671f89e21211ca1f75590"},"name":"Buntzen Lake Trail","type":"Park","address":{"street":"5000 Sunnyside Rd","city":"Anmore","country":"Canada"},"location":{"type":"Point","coordinates":[-122.855,49.342]}},{"_id":{"$oid":"692671f89e21211ca1f75591"},"name":"Golden Ears Provincial Park","type":"Park","address":{"street":"24480 Fern Crescent","city":"Maple Ridge","country":"Canada"},"location":{"type":"Point","coordinates":[-122.459,49.327]}},{"_id":{"$oid":"692671f89e21211ca1f75592"},"name":"White Rock Beach Promenade","type":"Park","address":{"street":"14935 Marine Dr","city":"White Rock","country":"Canada"},"location":{"type":"Point","coordinates":[-122.805,49.026]}},{"_id":{"$oid":"692671f89e21211ca1f75593"},"name":"Barnet Marine Park","type":"Park","address":{"street":"8181 Barnet Rd","city":"Burnaby","country":"Canada"},"location":{"type":"Point","coordinates":[-122.949,49.296]}},{"_id":{"$oid":"692671f89e21211ca1f75594"},"name":"Lighthouse Park Trails","type":"Park","address":{"street":"4902 Beacon Ln","city":"West Vancouver","country":"Canada"},"location":{"type":"Point","coordinates":[-123.263,49.33]}},{"_id":{"$oid":"692671f89e21211ca1f75595"},"name":"Cypress Mountain Nordic Centre","type":"Facility","address":{"street":"6000 Cypress Bowl Rd","city":"West Vancouver","country":"Canada"},"location":{"type":"Point","coordinates":[-123.203,49.396]}},{"_id":{"$oid":"692671f89e21211ca1f75596"},"name":"Grouse Mountain Trailhead","type":"Park","address":{"street":"6400 Nancy Greene Way","city":"North Vancouver","country":"Canada"},"location":{"type":"Point","coordinates":[-123.081,49.38]}},{"_id":{"$oid":"692671f89e21211ca1f75597"},"name":"SFU Burnaby Mountain Trails","type":"Park","address":{"street":"8888 University Dr","city":"Burnaby","country":"Canada"},"location":{"type":"Point","coordinates":[-122.915,49.278]}},{"_id":{"$oid":"692671f89e21211ca1f75598"},"name":"Deas Island Park","type":"Park","address":{"street":"6090 Deas Island Rd","city":"Delta","country":"Canada"},"location":{"type":"Point","coordinates":[-123.043,49.105]}},{"_id":{"$oid":"692675309e21211ca1f7559c"},"name":"Central Fitness Center","type":"Gym","address":{"street":"123 Main St","city":"Vancouver","country":"Canada"},"location":{"type":"Point","coordinates":[-123.115,49.28]}}]
